{
    "source": "Statec - Statistikseite des Staates Luxemburghttps://lustat.statec.lu/vis?fs[0]=Topics%2C1%7CPopulation%20and%20employment%23B%23%7CPopulation%20structure%23B1%23&pg=0&fc=Topics&lc=en&df[ds]=ds-release&df[id]=DF_X021&df[ag]=LU1&df[vs]=1.0&pd=2015%2C2023&dq=A.",
    "data": [
        {
            "lat": "50.0547912",
            "lon": "6.0275511",
            "number": 1,
            "name": "Clervaux",
            "population": 6021,
            "osm_id": 1353121
        },
        {
            "lat": "49.996313099999995",
            "lon": "6.099126835094641",
            "number": 2,
            "name": "Parc Hosingen",
            "population": 4036,
            "osm_id": 1342841
        },
        {
            "lat": "50.1212652",
            "lon": "6.0020737",
            "number": 3,
            "name": "Troisvierges",
            "population": 3513,
            "osm_id": 1353102
        },
        {
            "lat": "50.139719",
            "lon": "6.0753153",
            "number": 4,
            "name": "Weiswampach",
            "population": 2313,
            "osm_id": 1353113
        },
        {
            "lat": "50.0534489",
            "lon": "5.9149576",
            "number": 5,
            "name": "Wincrange",
            "population": 4804,
            "osm_id": 1353118
        },
        {
            "lat": "49.8756671",
            "lon": "6.2171675",
            "number": 6,
            "name": "Bettendorf",
            "population": 3052,
            "osm_id": 1113664
        },
        {
            "lat": "49.9099274",
            "lon": "6.0645251",
            "number": 7,
            "name": "Bourscheid",
            "population": 1678,
            "osm_id": 1113661
        },
        {
            "lat": "49.8690898",
            "lon": "6.1600549",
            "number": 8,
            "name": "Diekirch",
            "population": 7295,
            "osm_id": 1113658
        },
        {
            "lat": "49.8628748",
            "lon": "6.114372",
            "number": 9,
            "name": "Erpeldange-sur-S\u00fbre",
            "population": 2429,
            "osm_id": 1113657
        },
        {
            "lat": "49.8470016",
            "lon": "6.0984659",
            "number": 10,
            "name": "Ettelbruck",
            "population": 9688,
            "osm_id": 1113662
        },
        {
            "lat": "49.862016499999996",
            "lon": "6.028477868201082",
            "number": 11,
            "name": "Feulen",
            "population": 2366,
            "osm_id": 1113660
        },
        {
            "lat": "49.8309168",
            "lon": "6.0041083",
            "number": 12,
            "name": "Mertzig",
            "population": 2370,
            "osm_id": 1113659
        },
        {
            "lat": "49.8673199",
            "lon": "6.2658927",
            "number": 13,
            "name": "Reisdorf",
            "population": 1353,
            "osm_id": 569738
        },
        {
            "lat": "49.8300396",
            "lon": "6.096622",
            "number": 14,
            "name": "Schieren",
            "population": 2149,
            "osm_id": 1113665
        },
        {
            "lat": "49.8214165",
            "lon": "6.226492405027903",
            "number": 15,
            "name": "Vall\u00e9e de l'Ernz",
            "population": 2770,
            "osm_id": 1113599
        },
        {
            "lat": "49.7307067",
            "lon": "5.8830092",
            "number": 16,
            "name": "Beckerich",
            "population": 2866,
            "osm_id": 1355924
        },
        {
            "lat": "49.7628457",
            "lon": "5.854027",
            "number": 17,
            "name": "Ell",
            "population": 1582,
            "osm_id": 1355975
        },
        {
            "lat": "49.8275648",
            "lon": "5.9644035",
            "number": 18,
            "name": "Grosbous",
            "population": 1134,
            "osm_id": 1354531
        },
        {
            "lat": "49.8021096",
            "lon": "5.9348446379391095",
            "number": 19,
            "name": "Pr\u00e9izerdaul",
            "population": 1827,
            "osm_id": 1355222
        },
        {
            "lat": "49.8298505",
            "lon": "5.8494252",
            "number": 20,
            "name": "Rambrouch",
            "population": 4836,
            "osm_id": 1356679
        },
        {
            "lat": "49.778048999999996",
            "lon": "5.891050888560612",
            "number": 21,
            "name": "Redange-sur-Attert",
            "population": 3059,
            "osm_id": 1356683
        },
        {
            "lat": "49.7277779",
            "lon": "5.9854867",
            "number": 22,
            "name": "Saeul",
            "population": 983,
            "osm_id": 1355855
        },
        {
            "lat": "49.7696681",
            "lon": "5.9815427",
            "number": 23,
            "name": "Useldange",
            "population": 2075,
            "osm_id": 1355531
        },
        {
            "lat": "49.8025509",
            "lon": "5.9963314",
            "number": 24,
            "name": "Vichten",
            "population": 1425,
            "osm_id": 1355348
        },
        {
            "lat": "49.8356744",
            "lon": "5.9054353",
            "number": 25,
            "name": "Wahl",
            "population": 1087,
            "osm_id": 1354643
        },
        {
            "lat": "49.9593737",
            "lon": "6.1412236",
            "number": 26,
            "name": "Putscheid",
            "population": 1153,
            "osm_id": 1337085
        },
        {
            "lat": "49.8974652",
            "lon": "6.1824934",
            "number": 27,
            "name": "Tandel",
            "population": 2238,
            "osm_id": 1337083
        },
        {
            "lat": "49.9336976",
            "lon": "6.2066715",
            "number": 28,
            "name": "Vianden",
            "population": 2203,
            "osm_id": 1337084
        },
        {
            "lat": "49.8869853",
            "lon": "5.8151538",
            "number": 29,
            "name": "Boulaide",
            "population": 1499,
            "osm_id": 1356792
        },
        {
            "lat": "49.9112543",
            "lon": "5.9351159",
            "number": 30,
            "name": "Esch-sur-S\u00fbre",
            "population": 3129,
            "osm_id": 1356772
        },
        {
            "lat": "49.9206113",
            "lon": "5.9668241",
            "number": 31,
            "name": "Goesdorf",
            "population": 1664,
            "osm_id": 1356822
        },
        {
            "lat": "49.9784565",
            "lon": "6.000857669175531",
            "number": 32,
            "name": "Kiischpelt",
            "population": 1260,
            "osm_id": 1357619
        },
        {
            "lat": "49.9315225",
            "lon": "5.851122226785716",
            "number": 33,
            "name": "Lac de la Haute-S\u00fbre",
            "population": 2253,
            "osm_id": 1357248
        },
        {
            "lat": "49.9666914",
            "lon": "5.9321021",
            "number": 34,
            "name": "Wiltz",
            "population": 7949,
            "osm_id": 1357531
        },
        {
            "lat": "49.9669968",
            "lon": "5.8899696",
            "number": 35,
            "name": "Winseler",
            "population": 1455,
            "osm_id": 1357539
        },
        {
            "lat": "49.8350416",
            "lon": "6.2898933",
            "number": 36,
            "name": "Beaufort",
            "population": 3053,
            "osm_id": 569734
        },
        {
            "lat": "49.7520112",
            "lon": "6.3626568",
            "number": 37,
            "name": "Bech",
            "population": 1357,
            "osm_id": 569736
        },
        {
            "lat": "49.822329",
            "lon": "6.35096",
            "number": 38,
            "name": "Berdorf",
            "population": 2219,
            "osm_id": 569737
        },
        {
            "lat": "49.7798323",
            "lon": "6.3382466",
            "number": 39,
            "name": "Consdorf",
            "population": 2117,
            "osm_id": 569735
        },
        {
            "lat": "49.8120961",
            "lon": "6.4214859",
            "number": 40,
            "name": "Echternach",
            "population": 5870,
            "osm_id": 569741
        },
        {
            "lat": "49.7767906",
            "lon": "6.456682848939024",
            "number": 41,
            "name": "Rosport - Mompach",
            "population": 3704,
            "osm_id": 569739
        },
        {
            "lat": "49.7952998",
            "lon": "6.2865589",
            "number": 42,
            "name": "Waldbillig",
            "population": 1960,
            "osm_id": 569742
        },
        {
            "lat": "49.68738",
            "lon": "6.3507938",
            "number": 43,
            "name": "Betzdorf",
            "population": 4105,
            "osm_id": 532142
        },
        {
            "lat": "49.7058978",
            "lon": "6.3729847",
            "number": 44,
            "name": "Biwer",
            "population": 1926,
            "osm_id": 532144
        },
        {
            "lat": "49.6663359",
            "lon": "6.341955",
            "number": 45,
            "name": "Flaxweiler",
            "population": 2193,
            "osm_id": 532140
        },
        {
            "lat": "49.679313",
            "lon": "6.4430979",
            "number": 46,
            "name": "Grevenmacher",
            "population": 5092,
            "osm_id": 532141
        },
        {
            "lat": "49.7118482",
            "lon": "6.2522878",
            "number": 47,
            "name": "Junglinster",
            "population": 8622,
            "osm_id": 532143
        },
        {
            "lat": "49.7071605",
            "lon": "6.4243373",
            "number": 48,
            "name": "Manternach",
            "population": 2298,
            "osm_id": 532177
        },
        {
            "lat": "49.7002005",
            "lon": "6.4815968",
            "number": 49,
            "name": "Mertert",
            "population": 5117,
            "osm_id": 532178
        },
        {
            "lat": "49.62702",
            "lon": "6.383273202287997",
            "number": 50,
            "name": "Wormeldange",
            "population": 3171,
            "osm_id": 532139
        },
        {
            "lat": "49.5557996",
            "lon": "6.3312468",
            "number": 51,
            "name": "Bous",
            "population": 1752,
            "osm_id": 407501
        },
        {
            "lat": "49.5433592",
            "lon": "6.2601063",
            "number": 52,
            "name": "Dalheim",
            "population": 2408,
            "osm_id": 407499
        },
        {
            "lat": "49.602187",
            "lon": "6.3667908",
            "number": 53,
            "name": "Lenningen",
            "population": 2070,
            "osm_id": 407778
        },
        {
            "lat": "49.5071747",
            "lon": "6.2814238",
            "number": 54,
            "name": "Mondorf-les-Bains",
            "population": 5424,
            "osm_id": 407732
        },
        {
            "lat": "49.5442267",
            "lon": "6.3676062",
            "number": 55,
            "name": "Remich",
            "population": 4015,
            "osm_id": 407503
        },
        {
            "lat": "49.4716",
            "lon": "6.3659008",
            "number": 56,
            "name": "Schengen",
            "population": 5196,
            "osm_id": 407741
        },
        {
            "lat": "49.5650843",
            "lon": "6.3634808",
            "number": 57,
            "name": "Stadtbredimus",
            "population": 1984,
            "osm_id": 407502
        },
        {
            "lat": "49.5572304",
            "lon": "6.287091",
            "number": 58,
            "name": "Waldbredimus",
            "population": 1337,
            "osm_id": 407500
        },
        {
            "lat": "49.587507",
            "lon": "5.9814794",
            "number": 59,
            "name": "Dippach",
            "population": 4635,
            "osm_id": 407895
        },
        {
            "lat": "49.6141671",
            "lon": "5.9506057",
            "number": 60,
            "name": "Garnich",
            "population": 2289,
            "osm_id": 407865
        },
        {
            "lat": "49.6958025",
            "lon": "5.938113757853628",
            "number": 61,
            "name": "Habscht",
            "population": 4992,
            "osm_id": 407841
        },
        {
            "lat": "49.587712249999996",
            "lon": "5.901094474807923",
            "number": 62,
            "name": "K\u00e4erjeng",
            "population": 11015,
            "osm_id": 407885
        },
        {
            "lat": "49.6675477",
            "lon": "6.0357089",
            "number": 63,
            "name": "Kehlen",
            "population": 6391,
            "osm_id": 407924
        },
        {
            "lat": "49.6697542",
            "lon": "5.949443",
            "number": 64,
            "name": "Koerich",
            "population": 2706,
            "osm_id": 407858
        },
        {
            "lat": "49.6645077",
            "lon": "6.0731924",
            "number": 65,
            "name": "Kopstal",
            "population": 4286,
            "osm_id": 407931
        },
        {
            "lat": "49.6266028",
            "lon": "6.0229288",
            "number": 66,
            "name": "Mamer",
            "population": 10643,
            "osm_id": 407937
        },
        {
            "lat": "49.6597539",
            "lon": "5.914723",
            "number": 67,
            "name": "Steinfort",
            "population": 5871,
            "osm_id": 407857
        },
        {
            "lat": "49.5173351",
            "lon": "6.0966536",
            "number": 68,
            "name": "Bettembourg",
            "population": 11422,
            "osm_id": 407896
        },
        {
            "lat": "49.5208469",
            "lon": "5.889242",
            "number": 69,
            "name": "Differdange",
            "population": 29536,
            "osm_id": 407474
        },
        {
            "lat": "49.4786477",
            "lon": "6.0847792",
            "number": 70,
            "name": "Dudelange",
            "population": 21953,
            "osm_id": 407453
        },
        {
            "lat": "49.4959628",
            "lon": "5.9850306",
            "number": 71,
            "name": "Esch-sur-Alzette",
            "population": 36625,
            "osm_id": 407419
        },
        {
            "lat": "49.5144142",
            "lon": "6.1903089",
            "number": 72,
            "name": "Frisange",
            "population": 4912,
            "osm_id": 407465
        },
        {
            "lat": "49.4861302",
            "lon": "6.041472",
            "number": 73,
            "name": "Kayl",
            "population": 9865,
            "osm_id": 407452
        },
        {
            "lat": "49.5660842",
            "lon": "6.0673211",
            "number": 74,
            "name": "Leudelange",
            "population": 2766,
            "osm_id": 407467
        },
        {
            "lat": "49.5320813",
            "lon": "5.9870253",
            "number": 75,
            "name": "Mondercange",
            "population": 7119,
            "osm_id": 407433
        },
        {
            "lat": "49.5566918",
            "lon": "5.8776052",
            "number": 76,
            "name": "P\u00e9tange",
            "population": 20563,
            "osm_id": 407475
        },
        {
            "lat": "49.5611874",
            "lon": "6.0093091",
            "number": 77,
            "name": "Reckange-sur-Mess",
            "population": 2734,
            "osm_id": 407468
        },
        {
            "lat": "49.5423193",
            "lon": "6.1471163",
            "number": 78,
            "name": "Roeser",
            "population": 6657,
            "osm_id": 407913
        },
        {
            "lat": "49.461113",
            "lon": "6.0307171",
            "number": 79,
            "name": "Rumelange",
            "population": 5692,
            "osm_id": 407448
        },
        {
            "lat": "49.5476008",
            "lon": "5.9272714",
            "number": 80,
            "name": "Sanem",
            "population": 18333,
            "osm_id": 407473
        },
        {
            "lat": "49.5062732",
            "lon": "6.0118175",
            "number": 81,
            "name": "Schifflange",
            "population": 11363,
            "osm_id": 407434
        },
        {
            "lat": "49.6106029",
            "lon": "6.0501598",
            "number": 82,
            "name": "Bertrange",
            "population": 8668,
            "osm_id": 407950
        },
        {
            "lat": "49.5858294",
            "lon": "6.2262883",
            "number": 83,
            "name": "Contern",
            "population": 4374,
            "osm_id": 411354
        },
        {
            "lat": "49.5729552",
            "lon": "6.1615727",
            "number": 84,
            "name": "Hesperange",
            "population": 16433,
            "osm_id": 410953
        },
        {
            "lat": "49.6112768",
            "lon": "6.129799",
            "number": 85,
            "name": "Luxembourg",
            "population": 132780,
            "osm_id": 407489
        },
        {
            "lat": "49.6512224",
            "lon": "6.2552342",
            "number": 86,
            "name": "Niederanven",
            "population": 6660,
            "osm_id": 411375
        },
        {
            "lat": "49.616081",
            "lon": "6.2173651",
            "number": 87,
            "name": "Sandweiler",
            "population": 3751,
            "osm_id": 411344
        },
        {
            "lat": "49.6226683",
            "lon": "6.2714312",
            "number": 88,
            "name": "Schuttrange",
            "population": 4387,
            "osm_id": 411374
        },
        {
            "lat": "49.677469",
            "lon": "6.1244736",
            "number": 89,
            "name": "Steinsel",
            "population": 5539,
            "osm_id": 411391
        },
        {
            "lat": "49.6196726",
            "lon": "6.0721393",
            "number": 90,
            "name": "Strassen",
            "population": 10538,
            "osm_id": 407944
        },
        {
            "lat": "49.6584806",
            "lon": "6.1306387",
            "number": 91,
            "name": "Walferdange",
            "population": 8730,
            "osm_id": 411392
        },
        {
            "lat": "49.5416974",
            "lon": "6.1995573",
            "number": 92,
            "name": "Weiler-la-Tour",
            "population": 2498,
            "osm_id": 410954
        },
        {
            "lat": "49.7891516",
            "lon": "6.0662981",
            "number": 93,
            "name": "Bissen",
            "population": 3450,
            "osm_id": 1333114
        },
        {
            "lat": "49.811143",
            "lon": "6.0910235",
            "number": 94,
            "name": "Colmar-Berg",
            "population": 2336,
            "osm_id": 1333116
        },
        {
            "lat": "49.7462374",
            "lon": "6.1866614",
            "number": 95,
            "name": "Fischbach",
            "population": 1308,
            "osm_id": 1333121
        },
        {
            "lat": "49.7707883",
            "lon": "6.2405201",
            "number": 96,
            "name": "Heffingen",
            "population": 1549,
            "osm_id": 1333119
        },
        {
            "lat": "49.7393575",
            "lon": "6.020404611111116",
            "number": 97,
            "name": "Helperknapp",
            "population": 4941,
            "osm_id": 1333122
        },
        {
            "lat": "49.7869673",
            "lon": "6.2189134",
            "number": 98,
            "name": "Larochette",
            "population": 2208,
            "osm_id": 1333115
        },
        {
            "lat": "49.7223176",
            "lon": "6.1278945",
            "number": 99,
            "name": "Lintgen",
            "population": 3436,
            "osm_id": 1333120
        },
        {
            "lat": "49.7011902",
            "lon": "6.1440065",
            "number": 100,
            "name": "Lorentzweiler",
            "population": 4521,
            "osm_id": 1333118
        },
        {
            "lat": "49.7506746",
            "lon": "6.1066591",
            "number": 101,
            "name": "Mersch",
            "population": 10393,
            "osm_id": 1333112
        },
        {
            "lat": "49.7938754",
            "lon": "6.1737271",
            "number": 102,
            "name": "Nommern",
            "population": 1437,
            "osm_id": 1333113
        }
    ]
}