{
    "source": "Statec - Statistikseite des Staates Luxemburghttps://lustat.statec.lu/vis?fs[0]=Topics%2C1%7CPopulation%20and%20employment%23B%23%7CPopulation%20structure%23B1%23&pg=0&fc=Topics&lc=en&df[ds]=ds-release&df[id]=DF_X021&df[ag]=LU1&df[vs]=1.0&pd=2015%2C2023&dq=A.",
    "data": [
        {
            "lat": "50.0547912",
            "lon": "6.0275511",
            "number": 1,
            "name": "Clervaux",
            "population": 6021,
            "osm_id": 1353121,
            "boundingbox": [
                [
                    "49.998863",
                    "5.956915"
                ],
                [
                    "50.1365735",
                    "6.1379604"
                ]
            ]
        },
        {
            "lat": "49.996313099999995",
            "lon": "6.099126835094641",
            "number": 2,
            "name": "Parc Hosingen",
            "population": 4036,
            "osm_id": 1342841,
            "boundingbox": [
                [
                    "49.932304",
                    "6.023325"
                ],
                [
                    "50.0603924",
                    "6.1726322"
                ]
            ]
        },
        {
            "lat": "50.1212652",
            "lon": "6.0020737",
            "number": 3,
            "name": "Troisvierges",
            "population": 3513,
            "osm_id": 1353102,
            "boundingbox": [
                [
                    "50.10654",
                    "5.953066"
                ],
                [
                    "50.1827726",
                    "6.052515"
                ]
            ]
        },
        {
            "lat": "50.139719",
            "lon": "6.0753153",
            "number": 4,
            "name": "Weiswampach",
            "population": 2313,
            "osm_id": 1353113,
            "boundingbox": [
                [
                    "50.09429",
                    "6.005522"
                ],
                [
                    "50.1720036",
                    "6.1256065"
                ]
            ]
        },
        {
            "lat": "50.0534489",
            "lon": "5.9149576",
            "number": 5,
            "name": "Wincrange",
            "population": 4804,
            "osm_id": 1353118,
            "boundingbox": [
                [
                    "49.987",
                    "5.8189622"
                ],
                [
                    "50.130554",
                    "6.0317745"
                ]
            ]
        },
        {
            "lat": "49.8756671",
            "lon": "6.2171675",
            "number": 6,
            "name": "Bettendorf",
            "population": 3052,
            "osm_id": 1113664,
            "boundingbox": [
                [
                    "49.8422",
                    "6.1556873"
                ],
                [
                    "49.8932739",
                    "6.2520701"
                ]
            ]
        },
        {
            "lat": "49.9099274",
            "lon": "6.0645251",
            "number": 7,
            "name": "Bourscheid",
            "population": 1678,
            "osm_id": 1113661,
            "boundingbox": [
                [
                    "49.865154",
                    "6.0113425"
                ],
                [
                    "49.955254",
                    "6.1317196"
                ]
            ]
        },
        {
            "lat": "49.8690898",
            "lon": "6.1600549",
            "number": 8,
            "name": "Diekirch",
            "population": 7295,
            "osm_id": 1113658,
            "boundingbox": [
                [
                    "49.83496",
                    "6.117529"
                ],
                [
                    "49.89867",
                    "6.1806583"
                ]
            ]
        },
        {
            "lat": "49.8628748",
            "lon": "6.114372",
            "number": 9,
            "name": "Erpeldange-sur-S\u00fbre",
            "population": 2429,
            "osm_id": 1113657,
            "boundingbox": [
                [
                    "49.83505",
                    "6.0717487"
                ],
                [
                    "49.903236",
                    "6.153532"
                ]
            ]
        },
        {
            "lat": "49.8470016",
            "lon": "6.0984659",
            "number": 10,
            "name": "Ettelbruck",
            "population": 9688,
            "osm_id": 1113662,
            "boundingbox": [
                [
                    "49.824398",
                    "6.038107"
                ],
                [
                    "49.87717",
                    "6.1167126"
                ]
            ]
        },
        {
            "lat": "49.862016499999996",
            "lon": "6.028477868201082",
            "number": 11,
            "name": "Feulen",
            "population": 2366,
            "osm_id": 1113660,
            "boundingbox": [
                [
                    "49.832634",
                    "5.985464"
                ],
                [
                    "49.891376",
                    "6.0690136"
                ]
            ]
        },
        {
            "lat": "49.8309168",
            "lon": "6.0041083",
            "number": 12,
            "name": "Mertzig",
            "population": 2370,
            "osm_id": 1113659,
            "boundingbox": [
                [
                    "49.81678",
                    "5.97019"
                ],
                [
                    "49.857376",
                    "6.0415554"
                ]
            ]
        },
        {
            "lat": "49.8673199",
            "lon": "6.2658927",
            "number": 13,
            "name": "Reisdorf",
            "population": 1353,
            "osm_id": 569738,
            "boundingbox": [
                [
                    "49.84627",
                    "6.2286636"
                ],
                [
                    "49.8991261",
                    "6.3143253"
                ]
            ]
        },
        {
            "lat": "49.8300396",
            "lon": "6.096622",
            "number": 14,
            "name": "Schieren",
            "population": 2149,
            "osm_id": 1113665,
            "boundingbox": [
                [
                    "49.8103805",
                    "6.072405"
                ],
                [
                    "49.8434",
                    "6.1472073"
                ]
            ]
        },
        {
            "lat": "49.8214165",
            "lon": "6.226492405027903",
            "number": 15,
            "name": "Vall\u00e9e de l'Ernz",
            "population": 2770,
            "osm_id": 1113599,
            "boundingbox": [
                [
                    "49.785378",
                    "6.1426716"
                ],
                [
                    "49.857468",
                    "6.271456"
                ]
            ]
        },
        {
            "lat": "49.7307067",
            "lon": "5.8830092",
            "number": 16,
            "name": "Beckerich",
            "population": 2866,
            "osm_id": 1355924,
            "boundingbox": [
                [
                    "49.702637",
                    "5.8243656"
                ],
                [
                    "49.75595",
                    "5.94713"
                ]
            ]
        },
        {
            "lat": "49.7628457",
            "lon": "5.854027",
            "number": 17,
            "name": "Ell",
            "population": 1582,
            "osm_id": 1355975,
            "boundingbox": [
                [
                    "49.744175",
                    "5.791628"
                ],
                [
                    "49.8193798",
                    "5.8704014"
                ]
            ]
        },
        {
            "lat": "49.8275648",
            "lon": "5.9644035",
            "number": 18,
            "name": "Grosbous",
            "population": 1134,
            "osm_id": 1354531,
            "boundingbox": [
                [
                    "49.809624",
                    "5.914995"
                ],
                [
                    "49.87069",
                    "5.987314"
                ]
            ]
        },
        {
            "lat": "49.8021096",
            "lon": "5.9348446379391095",
            "number": 19,
            "name": "Pr\u00e9izerdaul",
            "population": 1827,
            "osm_id": 1355222,
            "boundingbox": [
                [
                    "49.778572",
                    "5.900793"
                ],
                [
                    "49.825516",
                    "5.9691486"
                ]
            ]
        },
        {
            "lat": "49.8298505",
            "lon": "5.8494252",
            "number": 20,
            "name": "Rambrouch",
            "population": 4836,
            "osm_id": 1356679,
            "boundingbox": [
                [
                    "49.790575",
                    "5.7392546"
                ],
                [
                    "49.8886929",
                    "5.9075108"
                ]
            ]
        },
        {
            "lat": "49.778048999999996",
            "lon": "5.891050888560612",
            "number": 21,
            "name": "Redange-sur-Attert",
            "population": 3059,
            "osm_id": 1356683,
            "boundingbox": [
                [
                    "49.742317",
                    "5.8271046"
                ],
                [
                    "49.8137989",
                    "5.9387836"
                ]
            ]
        },
        {
            "lat": "49.7277779",
            "lon": "5.9854867",
            "number": 22,
            "name": "Saeul",
            "population": 983,
            "osm_id": 1355855,
            "boundingbox": [
                [
                    "49.701874",
                    "5.9211216"
                ],
                [
                    "49.754025",
                    "6.007044"
                ]
            ]
        },
        {
            "lat": "49.7696681",
            "lon": "5.9815427",
            "number": 23,
            "name": "Useldange",
            "population": 2075,
            "osm_id": 1355531,
            "boundingbox": [
                [
                    "49.730507",
                    "5.9204884"
                ],
                [
                    "49.809357",
                    "6.0053577"
                ]
            ]
        },
        {
            "lat": "49.8025509",
            "lon": "5.9963314",
            "number": 24,
            "name": "Vichten",
            "population": 1425,
            "osm_id": 1355348,
            "boundingbox": [
                [
                    "49.786736",
                    "5.9660816"
                ],
                [
                    "49.83157",
                    "6.0411587"
                ]
            ]
        },
        {
            "lat": "49.8356744",
            "lon": "5.9054353",
            "number": 25,
            "name": "Wahl",
            "population": 1087,
            "osm_id": 1354643,
            "boundingbox": [
                [
                    "49.81537",
                    "5.867815"
                ],
                [
                    "49.88841",
                    "5.9492016"
                ]
            ]
        },
        {
            "lat": "49.9593737",
            "lon": "6.1412236",
            "number": 26,
            "name": "Putscheid",
            "population": 1153,
            "osm_id": 1337085,
            "boundingbox": [
                [
                    "49.91869",
                    "6.0871983"
                ],
                [
                    "49.9875659",
                    "6.1981754"
                ]
            ]
        },
        {
            "lat": "49.8974652",
            "lon": "6.1824934",
            "number": 27,
            "name": "Tandel",
            "population": 2238,
            "osm_id": 1337083,
            "boundingbox": [
                [
                    "49.8707252",
                    "6.1085987"
                ],
                [
                    "49.945587",
                    "6.2353649"
                ]
            ]
        },
        {
            "lat": "49.9336976",
            "lon": "6.2066715",
            "number": 28,
            "name": "Vianden",
            "population": 2203,
            "osm_id": 1337084,
            "boundingbox": [
                [
                    "49.92283",
                    "6.1489544"
                ],
                [
                    "49.955196",
                    "6.227331"
                ]
            ]
        },
        {
            "lat": "49.8869853",
            "lon": "5.8151538",
            "number": 29,
            "name": "Boulaide",
            "population": 1499,
            "osm_id": 1356792,
            "boundingbox": [
                [
                    "49.8634701",
                    "5.7357006"
                ],
                [
                    "49.920147",
                    "5.856802"
                ]
            ]
        },
        {
            "lat": "49.9112543",
            "lon": "5.9351159",
            "number": 30,
            "name": "Esch-sur-S\u00fbre",
            "population": 3129,
            "osm_id": 1356772,
            "boundingbox": [
                [
                    "49.852413",
                    "5.845255"
                ],
                [
                    "49.9262457",
                    "6.0373325"
                ]
            ]
        },
        {
            "lat": "49.9206113",
            "lon": "5.9668241",
            "number": 31,
            "name": "Goesdorf",
            "population": 1664,
            "osm_id": 1356822,
            "boundingbox": [
                [
                    "49.9039527",
                    "5.9163227"
                ],
                [
                    "49.96459",
                    "6.0492997"
                ]
            ]
        },
        {
            "lat": "49.9784565",
            "lon": "6.000857669175531",
            "number": 32,
            "name": "Kiischpelt",
            "population": 1260,
            "osm_id": 1357619,
            "boundingbox": [
                [
                    "49.93695",
                    "5.963854"
                ],
                [
                    "50.019978",
                    "6.0608425"
                ]
            ]
        },
        {
            "lat": "49.9315225",
            "lon": "5.851122226785716",
            "number": 33,
            "name": "Lac de la Haute-S\u00fbre",
            "population": 2253,
            "osm_id": 1357248,
            "boundingbox": [
                [
                    "49.89743",
                    "5.7604694"
                ],
                [
                    "49.96569",
                    "5.9498923"
                ]
            ]
        },
        {
            "lat": "49.9666914",
            "lon": "5.9321021",
            "number": 34,
            "name": "Wiltz",
            "population": 7949,
            "osm_id": 1357531,
            "boundingbox": [
                [
                    "49.934536",
                    "5.8778744"
                ],
                [
                    "50.032234",
                    "5.980192"
                ]
            ]
        },
        {
            "lat": "49.9669968",
            "lon": "5.8899696",
            "number": 35,
            "name": "Winseler",
            "population": 1455,
            "osm_id": 1357539,
            "boundingbox": [
                [
                    "49.93585",
                    "5.807108"
                ],
                [
                    "50.00021",
                    "5.922777"
                ]
            ]
        },
        {
            "lat": "49.8350416",
            "lon": "6.2898933",
            "number": 36,
            "name": "Beaufort",
            "population": 3053,
            "osm_id": 569734,
            "boundingbox": [
                [
                    "49.82036",
                    "6.254675"
                ],
                [
                    "49.8598843",
                    "6.3306293"
                ]
            ]
        },
        {
            "lat": "49.7520112",
            "lon": "6.3626568",
            "number": 37,
            "name": "Bech",
            "population": 1357,
            "osm_id": 569736,
            "boundingbox": [
                [
                    "49.7304158",
                    "6.2647694"
                ],
                [
                    "49.7742324",
                    "6.4008973"
                ]
            ]
        },
        {
            "lat": "49.822329",
            "lon": "6.35096",
            "number": 38,
            "name": "Berdorf",
            "population": 2219,
            "osm_id": 569737,
            "boundingbox": [
                [
                    "49.79136",
                    "6.3113117"
                ],
                [
                    "49.8507671",
                    "6.389517"
                ]
            ]
        },
        {
            "lat": "49.7798323",
            "lon": "6.3382466",
            "number": 39,
            "name": "Consdorf",
            "population": 2117,
            "osm_id": 569735,
            "boundingbox": [
                [
                    "49.7456525",
                    "6.2654807"
                ],
                [
                    "49.801266",
                    "6.3911076"
                ]
            ]
        },
        {
            "lat": "49.8120961",
            "lon": "6.4214859",
            "number": 40,
            "name": "Echternach",
            "population": 5870,
            "osm_id": 569741,
            "boundingbox": [
                [
                    "49.7687119",
                    "6.366396"
                ],
                [
                    "49.8326435",
                    "6.470854"
                ]
            ]
        },
        {
            "lat": "49.7767906",
            "lon": "6.456682848939024",
            "number": 41,
            "name": "Rosport - Mompach",
            "population": 3704,
            "osm_id": 569739,
            "boundingbox": [
                [
                    "49.731277",
                    "6.3913097"
                ],
                [
                    "49.8223248",
                    "6.5308971"
                ]
            ]
        },
        {
            "lat": "49.7952998",
            "lon": "6.2865589",
            "number": 42,
            "name": "Waldbillig",
            "population": 1960,
            "osm_id": 569742,
            "boundingbox": [
                [
                    "49.76254",
                    "6.2366543"
                ],
                [
                    "49.82461",
                    "6.3249836"
                ]
            ]
        },
        {
            "lat": "49.68738",
            "lon": "6.3507938",
            "number": 43,
            "name": "Betzdorf",
            "population": 4105,
            "osm_id": 532142,
            "boundingbox": [
                [
                    "49.6363558",
                    "6.2773311"
                ],
                [
                    "49.70419",
                    "6.3778782"
                ]
            ]
        },
        {
            "lat": "49.7058978",
            "lon": "6.3729847",
            "number": 44,
            "name": "Biwer",
            "population": 1926,
            "osm_id": 532144,
            "boundingbox": [
                [
                    "49.6768773",
                    "6.3075733"
                ],
                [
                    "49.738167",
                    "6.409273"
                ]
            ]
        },
        {
            "lat": "49.6663359",
            "lon": "6.341955",
            "number": 45,
            "name": "Flaxweiler",
            "population": 2193,
            "osm_id": 532140,
            "boundingbox": [
                [
                    "49.6071537",
                    "6.3031724"
                ],
                [
                    "49.6783818",
                    "6.4235545"
                ]
            ]
        },
        {
            "lat": "49.679313",
            "lon": "6.4430979",
            "number": 46,
            "name": "Grevenmacher",
            "population": 5092,
            "osm_id": 532141,
            "boundingbox": [
                [
                    "49.6540584",
                    "6.3601901"
                ],
                [
                    "49.699844",
                    "6.4610566"
                ]
            ]
        },
        {
            "lat": "49.7118482",
            "lon": "6.2522878",
            "number": 47,
            "name": "Junglinster",
            "population": 8622,
            "osm_id": 532143,
            "boundingbox": [
                [
                    "49.6750518",
                    "6.1669981"
                ],
                [
                    "49.74972",
                    "6.3328439"
                ]
            ]
        },
        {
            "lat": "49.7071605",
            "lon": "6.4243373",
            "number": 48,
            "name": "Manternach",
            "population": 2298,
            "osm_id": 532177,
            "boundingbox": [
                [
                    "49.6878336",
                    "6.362108"
                ],
                [
                    "49.7556534",
                    "6.461725"
                ]
            ]
        },
        {
            "lat": "49.7002005",
            "lon": "6.4815968",
            "number": 49,
            "name": "Mertert",
            "population": 5117,
            "osm_id": 532178,
            "boundingbox": [
                [
                    "49.6923492",
                    "6.444807"
                ],
                [
                    "49.7426467",
                    "6.517149"
                ]
            ]
        },
        {
            "lat": "49.62702",
            "lon": "6.383273202287997",
            "number": 50,
            "name": "Wormeldange",
            "population": 3171,
            "osm_id": 532139,
            "boundingbox": [
                [
                    "49.5900392",
                    "6.3526062"
                ],
                [
                    "49.6640331",
                    "6.4399471"
                ]
            ]
        },
        {
            "lat": "49.5557996",
            "lon": "6.3312468",
            "number": 51,
            "name": "Bous",
            "population": 1752,
            "osm_id": 407501,
            "boundingbox": [
                [
                    "49.5304813",
                    "6.291895"
                ],
                [
                    "49.5828464",
                    "6.355383"
                ]
            ]
        },
        {
            "lat": "49.5433592",
            "lon": "6.2601063",
            "number": 52,
            "name": "Dalheim",
            "population": 2408,
            "osm_id": 407499,
            "boundingbox": [
                [
                    "49.515022",
                    "6.2192173"
                ],
                [
                    "49.570213",
                    "6.3249607"
                ]
            ]
        },
        {
            "lat": "49.602187",
            "lon": "6.3667908",
            "number": 53,
            "name": "Lenningen",
            "population": 2070,
            "osm_id": 407778,
            "boundingbox": [
                [
                    "49.5805008",
                    "6.2737857"
                ],
                [
                    "49.6283837",
                    "6.3822218"
                ]
            ]
        },
        {
            "lat": "49.5071747",
            "lon": "6.2814238",
            "number": 54,
            "name": "Mondorf-les-Bains",
            "population": 5424,
            "osm_id": 407732,
            "boundingbox": [
                [
                    "49.49299",
                    "6.2405834"
                ],
                [
                    "49.53438",
                    "6.3242626"
                ]
            ]
        },
        {
            "lat": "49.5442267",
            "lon": "6.3676062",
            "number": 55,
            "name": "Remich",
            "population": 4015,
            "osm_id": 407503,
            "boundingbox": [
                [
                    "49.5342426",
                    "6.3391705"
                ],
                [
                    "49.5614567",
                    "6.3817654"
                ]
            ]
        },
        {
            "lat": "49.4716",
            "lon": "6.3659008",
            "number": 56,
            "name": "Schengen",
            "population": 5196,
            "osm_id": 407741,
            "boundingbox": [
                [
                    "49.4595051",
                    "6.2843876"
                ],
                [
                    "49.5388622",
                    "6.3688526"
                ]
            ]
        },
        {
            "lat": "49.5650843",
            "lon": "6.3634808",
            "number": 57,
            "name": "Stadtbredimus",
            "population": 1984,
            "osm_id": 407502,
            "boundingbox": [
                [
                    "49.55504",
                    "6.3116775"
                ],
                [
                    "49.5954043",
                    "6.3823376"
                ]
            ]
        },
        {
            "lat": "49.5572304",
            "lon": "6.287091",
            "number": 58,
            "name": "Waldbredimus",
            "population": 1337,
            "osm_id": 407500,
            "boundingbox": [
                [
                    "49.543377",
                    "6.2537746"
                ],
                [
                    "49.58656",
                    "6.312605"
                ]
            ]
        },
        {
            "lat": "49.587507",
            "lon": "5.9814794",
            "number": 59,
            "name": "Dippach",
            "population": 4635,
            "osm_id": 407895,
            "boundingbox": [
                [
                    "49.5625767",
                    "5.9300279"
                ],
                [
                    "49.610437",
                    "6.0146031"
                ]
            ]
        },
        {
            "lat": "49.6141671",
            "lon": "5.9506057",
            "number": 60,
            "name": "Garnich",
            "population": 2289,
            "osm_id": 407865,
            "boundingbox": [
                [
                    "49.5912374",
                    "5.8928322"
                ],
                [
                    "49.641647",
                    "5.97225"
                ]
            ]
        },
        {
            "lat": "49.6958025",
            "lon": "5.938113757853628",
            "number": 61,
            "name": "Habscht",
            "population": 4992,
            "osm_id": 407841,
            "boundingbox": [
                [
                    "49.66789",
                    "5.8618145"
                ],
                [
                    "49.72373",
                    "6.0228176"
                ]
            ]
        },
        {
            "lat": "49.587712249999996",
            "lon": "5.901094474807923",
            "number": 62,
            "name": "K\u00e4erjeng",
            "population": 11015,
            "osm_id": 407885,
            "boundingbox": [
                [
                    "49.54619",
                    "5.847769"
                ],
                [
                    "49.62922",
                    "5.957964"
                ]
            ]
        },
        {
            "lat": "49.6675477",
            "lon": "6.0357089",
            "number": 63,
            "name": "Kehlen",
            "population": 6391,
            "osm_id": 407924,
            "boundingbox": [
                [
                    "49.643925",
                    "5.9775143"
                ],
                [
                    "49.70365",
                    "6.0922491"
                ]
            ]
        },
        {
            "lat": "49.6697542",
            "lon": "5.949443",
            "number": 64,
            "name": "Koerich",
            "population": 2706,
            "osm_id": 407858,
            "boundingbox": [
                [
                    "49.642773",
                    "5.9176884"
                ],
                [
                    "49.69276",
                    "5.9951115"
                ]
            ]
        },
        {
            "lat": "49.6645077",
            "lon": "6.0731924",
            "number": 65,
            "name": "Kopstal",
            "population": 4286,
            "osm_id": 407931,
            "boundingbox": [
                [
                    "49.6459902",
                    "6.0521901"
                ],
                [
                    "49.6812622",
                    "6.1041849"
                ]
            ]
        },
        {
            "lat": "49.6266028",
            "lon": "6.0229288",
            "number": 66,
            "name": "Mamer",
            "population": 10643,
            "osm_id": 407937,
            "boundingbox": [
                [
                    "49.5989125",
                    "5.9587383"
                ],
                [
                    "49.655746",
                    "6.0606203"
                ]
            ]
        },
        {
            "lat": "49.6597539",
            "lon": "5.914723",
            "number": 67,
            "name": "Steinfort",
            "population": 5871,
            "osm_id": 407857,
            "boundingbox": [
                [
                    "49.62733",
                    "5.882704"
                ],
                [
                    "49.67618",
                    "5.959875"
                ]
            ]
        },
        {
            "lat": "49.5173351",
            "lon": "6.0966536",
            "number": 68,
            "name": "Bettembourg",
            "population": 11422,
            "osm_id": 407896,
            "boundingbox": [
                [
                    "49.49391",
                    "6.0393925"
                ],
                [
                    "49.5520296",
                    "6.1280727"
                ]
            ]
        },
        {
            "lat": "49.5208469",
            "lon": "5.889242",
            "number": 69,
            "name": "Differdange",
            "population": 29536,
            "osm_id": 407474,
            "boundingbox": [
                [
                    "49.496532",
                    "5.834116"
                ],
                [
                    "49.547462",
                    "5.9163227"
                ]
            ]
        },
        {
            "lat": "49.4786477",
            "lon": "6.0847792",
            "number": 70,
            "name": "Dudelange",
            "population": 21953,
            "osm_id": 407453,
            "boundingbox": [
                [
                    "49.45289",
                    "6.0474987"
                ],
                [
                    "49.50705",
                    "6.1280384"
                ]
            ]
        },
        {
            "lat": "49.4959628",
            "lon": "5.9850306",
            "number": 71,
            "name": "Esch-sur-Alzette",
            "population": 36625,
            "osm_id": 407419,
            "boundingbox": [
                [
                    "49.4609064",
                    "5.9432149"
                ],
                [
                    "49.5186183",
                    "6.005144"
                ]
            ]
        },
        {
            "lat": "49.5144142",
            "lon": "6.1903089",
            "number": 72,
            "name": "Frisange",
            "population": 4912,
            "osm_id": 407465,
            "boundingbox": [
                [
                    "49.48667",
                    "6.1300983"
                ],
                [
                    "49.540806",
                    "6.2406734"
                ]
            ]
        },
        {
            "lat": "49.4861302",
            "lon": "6.041472",
            "number": 73,
            "name": "Kayl",
            "population": 9865,
            "osm_id": 407452,
            "boundingbox": [
                [
                    "49.4478587",
                    "5.993067"
                ],
                [
                    "49.506527",
                    "6.0616474"
                ]
            ]
        },
        {
            "lat": "49.5660842",
            "lon": "6.0673211",
            "number": 74,
            "name": "Leudelange",
            "population": 2766,
            "osm_id": 407467,
            "boundingbox": [
                [
                    "49.5477053",
                    "6.0374039"
                ],
                [
                    "49.5898225",
                    "6.1043518"
                ]
            ]
        },
        {
            "lat": "49.5320813",
            "lon": "5.9870253",
            "number": 75,
            "name": "Mondercange",
            "population": 7119,
            "osm_id": 407433,
            "boundingbox": [
                [
                    "49.5112126",
                    "5.9530067"
                ],
                [
                    "49.5528782",
                    "6.0624988"
                ]
            ]
        },
        {
            "lat": "49.5566918",
            "lon": "5.8776052",
            "number": 76,
            "name": "P\u00e9tange",
            "population": 20563,
            "osm_id": 407475,
            "boundingbox": [
                [
                    "49.52923",
                    "5.8081264"
                ],
                [
                    "49.571716",
                    "5.887434"
                ]
            ]
        },
        {
            "lat": "49.5611874",
            "lon": "6.0093091",
            "number": 77,
            "name": "Reckange-sur-Mess",
            "population": 2734,
            "osm_id": 407468,
            "boundingbox": [
                [
                    "49.5357511",
                    "5.9607442"
                ],
                [
                    "49.5866972",
                    "6.049797"
                ]
            ]
        },
        {
            "lat": "49.5423193",
            "lon": "6.1471163",
            "number": 78,
            "name": "Roeser",
            "population": 6657,
            "osm_id": 407913,
            "boundingbox": [
                [
                    "49.489975",
                    "6.0846338"
                ],
                [
                    "49.5667929",
                    "6.1764545"
                ]
            ]
        },
        {
            "lat": "49.461113",
            "lon": "6.0307171",
            "number": 79,
            "name": "Rumelange",
            "population": 5692,
            "osm_id": 407448,
            "boundingbox": [
                [
                    "49.44826",
                    "5.978754"
                ],
                [
                    "49.476307",
                    "6.0436306"
                ]
            ]
        },
        {
            "lat": "49.5476008",
            "lon": "5.9272714",
            "number": 80,
            "name": "Sanem",
            "population": 18333,
            "osm_id": 407473,
            "boundingbox": [
                [
                    "49.4951792",
                    "5.8985386"
                ],
                [
                    "49.5694385",
                    "5.9766419"
                ]
            ]
        },
        {
            "lat": "49.5062732",
            "lon": "6.0118175",
            "number": 81,
            "name": "Schifflange",
            "population": 11363,
            "osm_id": 407434,
            "boundingbox": [
                [
                    "49.483288",
                    "5.993269"
                ],
                [
                    "49.5237405",
                    "6.0411612"
                ]
            ]
        },
        {
            "lat": "49.6106029",
            "lon": "6.0501598",
            "number": 82,
            "name": "Bertrange",
            "population": 8668,
            "osm_id": 407950,
            "boundingbox": [
                [
                    "49.581654",
                    "5.9984345"
                ],
                [
                    "49.6285511",
                    "6.0823658"
                ]
            ]
        },
        {
            "lat": "49.5858294",
            "lon": "6.2262883",
            "number": 83,
            "name": "Contern",
            "population": 4374,
            "osm_id": 411354,
            "boundingbox": [
                [
                    "49.567566",
                    "6.1954174"
                ],
                [
                    "49.6101124",
                    "6.3028543"
                ]
            ]
        },
        {
            "lat": "49.5729552",
            "lon": "6.1615727",
            "number": 84,
            "name": "Hesperange",
            "population": 16433,
            "osm_id": 410953,
            "boundingbox": [
                [
                    "49.54809",
                    "6.1137146"
                ],
                [
                    "49.6082757",
                    "6.2098942"
                ]
            ]
        },
        {
            "lat": "49.6112768",
            "lon": "6.129799",
            "number": 85,
            "name": "Luxembourg",
            "population": 132780,
            "osm_id": 407489,
            "boundingbox": [
                [
                    "49.5609875",
                    "6.06917"
                ],
                [
                    "49.6548682",
                    "6.2036491"
                ]
            ]
        },
        {
            "lat": "49.6512224",
            "lon": "6.2552342",
            "number": 86,
            "name": "Niederanven",
            "population": 6660,
            "osm_id": 411375,
            "boundingbox": [
                [
                    "49.622978",
                    "6.1427088"
                ],
                [
                    "49.6862868",
                    "6.2895993"
                ]
            ]
        },
        {
            "lat": "49.616081",
            "lon": "6.2173651",
            "number": 87,
            "name": "Sandweiler",
            "population": 3751,
            "osm_id": 411344,
            "boundingbox": [
                [
                    "49.5995735",
                    "6.1854299"
                ],
                [
                    "49.6324337",
                    "6.2402922"
                ]
            ]
        },
        {
            "lat": "49.6226683",
            "lon": "6.2714312",
            "number": 88,
            "name": "Schuttrange",
            "population": 4387,
            "osm_id": 411374,
            "boundingbox": [
                [
                    "49.6028014",
                    "6.2309447"
                ],
                [
                    "49.6472824",
                    "6.3096865"
                ]
            ]
        },
        {
            "lat": "49.677469",
            "lon": "6.1244736",
            "number": 89,
            "name": "Steinsel",
            "population": 5539,
            "osm_id": 411391,
            "boundingbox": [
                [
                    "49.6412971",
                    "6.0821937"
                ],
                [
                    "49.6923056",
                    "6.2148057"
                ]
            ]
        },
        {
            "lat": "49.6196726",
            "lon": "6.0721393",
            "number": 90,
            "name": "Strassen",
            "population": 10538,
            "osm_id": 407944,
            "boundingbox": [
                [
                    "49.6055978",
                    "6.0458175"
                ],
                [
                    "49.6582876",
                    "6.1037705"
                ]
            ]
        },
        {
            "lat": "49.6584806",
            "lon": "6.1306387",
            "number": 91,
            "name": "Walferdange",
            "population": 8730,
            "osm_id": 411392,
            "boundingbox": [
                [
                    "49.6462712",
                    "6.0981407"
                ],
                [
                    "49.6693971",
                    "6.165025"
                ]
            ]
        },
        {
            "lat": "49.5416974",
            "lon": "6.1995573",
            "number": 92,
            "name": "Weiler-la-Tour",
            "population": 2498,
            "osm_id": 410954,
            "boundingbox": [
                [
                    "49.516975",
                    "6.1554127"
                ],
                [
                    "49.57778",
                    "6.2354755"
                ]
            ]
        },
        {
            "lat": "49.7891516",
            "lon": "6.0662981",
            "number": 93,
            "name": "Bissen",
            "population": 3450,
            "osm_id": 1333114,
            "boundingbox": [
                [
                    "49.763958",
                    "6.0126095"
                ],
                [
                    "49.823093",
                    "6.1016827"
                ]
            ]
        },
        {
            "lat": "49.811143",
            "lon": "6.0910235",
            "number": 94,
            "name": "Colmar-Berg",
            "population": 2336,
            "osm_id": 1333116,
            "boundingbox": [
                [
                    "49.788982",
                    "6.04035"
                ],
                [
                    "49.834442",
                    "6.118009"
                ]
            ]
        },
        {
            "lat": "49.7462374",
            "lon": "6.1866614",
            "number": 95,
            "name": "Fischbach",
            "population": 1308,
            "osm_id": 1333121,
            "boundingbox": [
                [
                    "49.7145832",
                    "6.1417027"
                ],
                [
                    "49.77475",
                    "6.2282925"
                ]
            ]
        },
        {
            "lat": "49.7707883",
            "lon": "6.2405201",
            "number": 96,
            "name": "Heffingen",
            "population": 1549,
            "osm_id": 1333119,
            "boundingbox": [
                [
                    "49.74425",
                    "6.2203503"
                ],
                [
                    "49.79184",
                    "6.279539"
                ]
            ]
        },
        {
            "lat": "49.7393575",
            "lon": "6.020404611111116",
            "number": 97,
            "name": "Helperknapp",
            "population": 4941,
            "osm_id": 1333122,
            "boundingbox": [
                [
                    "49.69131",
                    "5.9859333"
                ],
                [
                    "49.78739",
                    "6.0837918"
                ]
            ]
        },
        {
            "lat": "49.7869673",
            "lon": "6.2189134",
            "number": 98,
            "name": "Larochette",
            "population": 2208,
            "osm_id": 1333115,
            "boundingbox": [
                [
                    "49.757107",
                    "6.15805"
                ],
                [
                    "49.801796",
                    "6.2355785"
                ]
            ]
        },
        {
            "lat": "49.7223176",
            "lon": "6.1278945",
            "number": 99,
            "name": "Lintgen",
            "population": 3436,
            "osm_id": 1333120,
            "boundingbox": [
                [
                    "49.7040053",
                    "6.0995319"
                ],
                [
                    "49.7445845",
                    "6.1848957"
                ]
            ]
        },
        {
            "lat": "49.7011902",
            "lon": "6.1440065",
            "number": 100,
            "name": "Lorentzweiler",
            "population": 4521,
            "osm_id": 1333118,
            "boundingbox": [
                [
                    "49.681343",
                    "6.0901455"
                ],
                [
                    "49.7230403",
                    "6.1872296"
                ]
            ]
        },
        {
            "lat": "49.7506746",
            "lon": "6.1066591",
            "number": 101,
            "name": "Mersch",
            "population": 10393,
            "osm_id": 1333112,
            "boundingbox": [
                [
                    "49.6930621",
                    "6.037321"
                ],
                [
                    "49.7912716",
                    "6.158968"
                ]
            ]
        },
        {
            "lat": "49.7938754",
            "lon": "6.1737271",
            "number": 102,
            "name": "Nommern",
            "population": 1437,
            "osm_id": 1333113,
            "boundingbox": [
                [
                    "49.77108",
                    "6.1045834"
                ],
                [
                    "49.826736",
                    "6.1973286"
                ]
            ]
        }
    ]
}